[{"id":"90","Number of Placements":"3","Location":"D12","County":"Dublin","Name":"Funtimes"},{"id":"123","Number of Placements":"0","Location":"D1","County":"Dublin","Name":"Home from Home"},{"id":"156","Number of Placements":"0","Location":"NAAS","County":"Kildare","Name":"Toddle In"},{"id":"649","Number of Placements":"0","Location":"D16","County":"Dublin","Name":"Tots & Swots"},{"id":"156","Number of Placements":"0","Location":"Naas","County":"Kildare","Name":"Coco's Childcare"},{"id":"649","Number of Placements":"0","Location":"Galway","County":"Galway","Name":"Links Creche & Montessori"},{"id":"372","Number of Placements":"0","Location":"D24","County":"Dublin","Name":"Little Gems Montessori & Childcare"},{"id":"735","Number of Placements":"0","Location":"D2","County":"Dublin","Name":"Woodlands Creche"},{"id":"56","Number of Placements":"0","Location":"D1","County":"Dublin","Name":"Saint Ultans Childcare Project"},{"id":"895","Number of Placements":"0","Location":"D6","County":"Dublin","Name":"St. Helena's Childcare Centre"},{"id":"675","Number of Placements":"0","Location":"D4","County":"Dublin","Name":"T�r na n�g"},{"id":"309","Number of Placements":"0","Location":"D11","County":"Dublin","Name":"Adorables"},{"id":"497","Number of Placements":"0","Location":"D17","County":"Dublin","Name":"Willow Tree Creche"},{"id":"267","Number of Placements":"0","Location":"D22","County":"Dublin","Name":"Bumblebee Montessori and Childcare"},{"id":"901","Number of Placements":"0","Location":"D5","County":"Dublin","Name":"Sutton Little People"},{"id":"501","Number of Placements":"1","Location":"D9","County":"Dublin","Name":"The Learning Circle"},{"id":"191","Number of Placements":"3","Location":"D3","County":"Dublin","Name":"Kid's Biz"}]
