[{"Number":"12345","Name":"Sarah Jones","Year":"3","Location":"D1","County":"Dublin","Allocated Placement":""},{"Number":"23456","Name":"Michael Test","Year":"3","Location":"D1","County":"Dublin","Allocated Placement":""},{"Number":"34567","Name":"Brian Smith","Year":"4","Location":"D21","County":"Dublin","Allocated Placement":""},{"Number":"45678","Name":"Joan McCabe","Year":"2","Location":"D8","County":"Dublin","Allocated Placement":""},{"Number":"56789","Name":"Jake Kelly","Year":"3","Location":"Naas","County":"Kildare","Allocated Placement":""},{"Number":"67890","Name":"Cian McCarthy","Year":"3","Location":"D4","County":"Dublin","Allocated Placement":""},{"Number":"13579","Name":"Ciara Molloy","Year":"1","Location":"Trim","County":"Meath","Allocated Placement":""},{"Number":"24680","Name":"Peter Burke","Year":"2","Location":"D24","County":"Dublin","Allocated Placement":""},{"Number":"98765","Name":"Patricia Murray","Year":"3","Location":"D7","County":"Dublin","Allocated Placement":""},{"Number":"87654","Name":"James Madden","Year":"4","Location":"D22","County":"Dublin","Allocated Placement":""},{"Number":"76543","Name":"Maya Adams","Year":"2","Location":"D6","County":"Dublin","Allocated Placement":""},{"Number":"65432","Name":"Adam Jackson","Year":"1","Location":"D21","County":"Dublin","Allocated Placement":""},{"Number":"54321","Name":"Jason Ennis","Year":"2","Location":"D1","County":"Dublin","Allocated Placement":""},{"Number":"43210","Name":"Hayley Field","Year":"4","Location":"D9","County":"Dublin","Allocated Placement":""}]
